DateTime[HH:mm:ss.ff],TimeSpan[f]
08:28:09.37,6228,$GPGGA,162811.000,3400.5983,N,11823.4121,W,1,10,0.95,33.7,M,-33.9,M,,*62
08:28:09.39,6255,$GPGSA,A,3,18,06,03,27,14,22,21,15,16,19,,,1.25,0.95,0.80*04
08:28:09.42,6284,$GPGSV,3,1,12,18,65,020,41,22,61,286,25,21,59,085,30,51,48,160,32*76
08:28:09.45,6305,$GPGSV,3,2,12,06,46,292,36,27,40,305,28,14,32,188,33,03,25,309,31*77
08:28:09.45,6313,$GPGSV,3,3,12,15,24,046,36,24,13,093,,16,12,265,29,19,09,322,36*78
08:28:09.45,6316,$GPRMC,162811.000,A,3400.5983,N,11823.4121,W,0.01,359.95,120214,,,A*78
08:28:09.46,6325,$GPVTG,359.95,T,,M,0.01,N,0.02,K,A*3D
08:28:10.35,7212,$GPGGA,162812.000,3400.5976,N,11823.4118,W,1,10,0.95,33.2,M,-33.9,M,,*64
08:28:10.37,7231,$GPGSA,A,3,18,06,03,27,14,22,21,15,16,19,,,1.25,0.95,0.80*04
08:28:10.39,7252,$GPGSV,3,1,12,18,65,020,41,22,61,286,25,21,59,085,30,51,48,160,32*76
08:28:10.42,7273,$GPGSV,3,2,12,06,46,292,35,27,40,305,28,14,32,188,33,03,25,309,31*74
08:28:10.43,7294,$GPGSV,3,3,12,15,24,046,36,24,13,093,,16,12,265,29,19,09,322,36*78
08:28:10.45,7316,$GPRMC,162812.000,A,3400.5976,N,11823.4118,W,0.10,359.95,120214,,,A*7B
08:28:10.47,7327,$GPVTG,359.95,T,,M,0.10,N,0.19,K,A*37
08:28:11.34,8198,$GPGGA,162813.000,3400.5972,N,11823.4115,W,1,10,0.95,32.8,M,-33.9,M,,*67
08:28:11.35,8216,$GPGSA,A,3,18,06,03,27,14,22,21,15,16,19,,,1.25,0.95,0.80*04
08:28:11.38,8238,$GPGSV,3,1,12,18,65,020,41,22,61,286,25,21,59,085,29,51,48,160,32*7E
08:28:11.40,8258,$GPGSV,3,2,12,06,46,292,35,27,40,305,28,14,32,188,33,03,25,309,31*74
08:28:11.42,8280,$GPGSV,3,3,12,15,24,046,36,24,13,093,,16,12,265,29,19,09,322,36*78
08:28:11.44,8302,$GPRMC,162813.000,A,3400.5972,N,11823.4115,W,0.13,359.95,120214,,,A*70
08:28:11.45,8313,$GPVTG,359.95,T,,M,0.13,N,0.25,K,A*3B
08:28:12.35,9209,$GPGGA,162814.000,3400.5968,N,11823.4114,W,1,10,0.95,32.3,M,-33.9,M,,*61
08:28:12.37,9227,$GPGSA,A,3,18,06,03,27,14,22,21,15,16,19,,,1.25,0.95,0.80*04
08:28:12.39,9249,$GPGSV,3,1,12,18,65,020,41,22,61,286,25,21,59,085,29,51,48,160,31*7D
08:28:12.41,9269,$GPGSV,3,2,12,06,46,292,34,27,40,305,29,14,32,188,33,03,26,309,31*77
08:28:12.43,9291,$GPGSV,3,3,12,15,24,046,36,24,13,093,,16,12,265,29,19,09,322,36*78
08:28:12.45,9313,$GPRMC,162814.000,A,3400.5968,N,11823.4114,W,0.23,359.95,120214,,,A*7E
08:28:12.46,9323,$GPVTG,359.95,T,,M,0.23,N,0.43,K,A*38
08:28:13.35,10211,$GPGGA,162815.000,3400.5965,N,11823.4110,W,1,10,0.95,31.7,M,-33.9,M,,*6E
08:28:13.37,10230,$GPGSA,A,3,18,06,03,27,14,22,21,15,16,19,,,1.25,0.95,0.80*04
08:28:13.39,10252,$GPGSV,3,1,12,18,65,020,41,22,61,286,25,21,59,085,29,51,48,160,31*7D
08:28:13.42,10272,$GPGSV,3,2,12,06,46,292,34,27,40,305,29,14,32,188,33,03,26,309,31*77
08:28:13.43,10294,$GPGSV,3,3,12,15,24,046,36,24,13,093,,16,12,265,28,19,09,322,36*79
08:28:13.45,10316,$GPRMC,162815.000,A,3400.5965,N,11823.4110,W,0.02,359.95,120214,,,A*75
08:28:13.47,10326,$GPVTG,359.95,T,,M,0.02,N,0.03,K,A*3F
08:28:14.34,11198,$GPGGA,162816.000,3400.5963,N,11823.4108,W,1,10,0.95,31.9,M,-33.9,M,,*6C
08:28:14.35,11216,$GPGSA,A,3,18,06,03,27,14,22,21,15,16,19,,,1.25,0.95,0.80*04
08:28:14.38,11238,$GPGSV,3,1,12,18,65,020,41,22,61,286,25,21,59,085,29,51,48,160,32*7E
08:28:14.40,11258,$GPGSV,3,2,12,06,46,292,34,27,40,305,29,14,32,188,33,03,26,309,31*77
08:28:14.42,11280,$GPGSV,3,3,12,15,24,046,36,24,13,093,,16,12,265,28,19,09,322,36*79
08:28:14.44,11302,$GPRMC,162816.000,A,3400.5963,N,11823.4108,W,0.05,359.95,120214,,,A*7E
08:28:14.45,11313,$GPVTG,359.95,T,,M,0.05,N,0.09,K,A*32
08:28:15.35,12212,$GPGGA,162817.000,3400.5963,N,11823.4105,W,1,10,0.95,31.7,M,-33.9,M,,*6E
08:28:15.37,12230,$GPGSA,A,3,18,06,03,27,14,22,21,15,16,19,,,1.25,0.95,0.80*04
08:28:15.39,12252,$GPGSV,3,1,12,18,65,020,41,22,61,286,25,21,59,085,29,51,48,160,32*7E
08:28:15.42,12272,$GPGSV,3,2,12,06,46,292,34,27,40,305,29,14,32,188,33,03,26,309,31*77
08:28:15.43,12294,$GPGSV,3,3,12,15,24,046,36,24,13,093,,16,12,265,28,19,09,322,36*79
08:28:15.45,12316,$GPRMC,162817.000,A,3400.5963,N,11823.4105,W,0.05,359.95,120214,,,A*72
08:28:15.47,12327,$GPVTG,359.95,T,,M,0.05,N,0.10,K,A*3A
08:28:16.33,13191,$GPGGA,162818.000,3400.5960,N,11823.4104,W,1,10,0.95,31.6,M,-33.9,M,,*62
08:28:16.35,13209,$GPGSA,A,3,18,06,03,27,14,22,21,15,16,19,,,1.25,0.95,0.80*04
08:28:16.37,13231,$GPGSV,3,1,12,18,65,020,41,22,61,286,25,21,59,085,29,51,48,160,32*7E
08:28:16.39,13251,$GPGSV,3,2,12,06,46,292,34,27,40,305,29,14,32,188,33,03,26,309,31*77
08:28:16.42,13273,$GPGSV,3,3,12,15,24,046,36,24,13,093,,16,12,265,28,19,09,322,36*79
08:28:16.44,13295,$GPRMC,162818.000,A,3400.5960,N,11823.4104,W,0.14,359.95,120214,,,A*7F
08:28:16.45,13306,$GPVTG,359.95,T,,M,0.14,N,0.27,K,A*3E
08:28:17.34,14196,$GPGGA,162819.000,3400.5960,N,11823.4102,W,1,10,0.95,31.3,M,-33.9,M,,*60
08:28:17.35,14214,$GPGSA,A,3,18,06,03,27,14,22,21,15,16,19,,,1.25,0.95,0.80*04
08:28:17.38,14236,$GPGSV,3,1,12,18,65,020,42,22,61,286,25,21,59,085,29,51,48,160,32*7D
08:28:17.40,14256,$GPGSV,3,2,12,06,46,292,33,27,40,305,30,14,32,188,33,03,26,309,31*78
08:28:17.42,14278,$GPGSV,3,3,12,15,24,046,36,24,13,093,,16,12,265,28,19,09,322,36*79
08:28:17.44,14300,$GPRMC,162819.000,A,3400.5960,N,11823.4102,W,0.04,359.95,120214,,,A*79
08:28:17.45,14310,$GPVTG,359.95,T,,M,0.04,N,0.08,K,A*32
08:28:18.33,15189,$GPGGA,162820.000,3400.5957,N,11823.4101,W,1,10,0.95,30.9,M,-33.9,M,,*66
08:28:18.35,15207,$GPGSA,A,3,18,06,03,27,14,22,21,15,16,19,,,1.25,0.95,0.80*04
08:28:18.37,15229,$GPGSV,3,1,12,18,65,020,42,22,61,286,25,21,59,085,29,51,48,160,32*7D
08:28:18.39,15248,$GPGSV,3,2,12,06,46,292,33,27,40,305,31,14,32,188,32,03,26,309,31*78
08:28:18.41,15271,$GPGSV,3,3,12,15,24,046,36,24,13,093,,16,12,265,28,19,09,322,36*79
08:28:18.43,15293,$GPRMC,162820.000,A,3400.5957,N,11823.4101,W,0.01,359.95,120214,,,A*71
08:28:18.45,15303,$GPVTG,359.95,T,,M,0.01,N,0.02,K,A*3D
08:28:19.34,16199,$GPGGA,162821.000,3400.5959,N,11823.4100,W,1,10,0.95,30.9,M,-33.9,M,,*68
08:28:19.36,16217,$GPGSA,A,3,18,06,03,27,14,22,21,15,16,19,,,1.25,0.95,0.80*04
08:28:19.38,16239,$GPGSV,3,1,12,18,65,020,42,22,61,286,25,21,59,085,29,51,48,160,32*7D
08:28:19.40,16259,$GPGSV,3,2,12,06,46,292,33,27,40,305,31,14,32,188,32,03,26,309,31*78
08:28:19.42,16281,$GPGSV,3,3,12,15,24,046,37,24,13,093,,16,12,265,28,19,09,322,36*78
08:28:19.45,16303,$GPRMC,162821.000,A,3400.5959,N,11823.4100,W,0.06,359.95,120214,,,A*78
08:28:19.45,16313,$GPVTG,359.95,T,,M,0.06,N,0.12,K,A*3B
08:28:20.34,17201,$GPGGA,162822.000,3400.5959,N,11823.4099,W,1,10,0.95,31.0,M,-33.9,M,,*62
08:28:20.36,17218,$GPGSA,A,3,18,06,03,27,14,22,21,15,16,19,,,1.25,0.95,0.80*04
08:28:20.38,17241,$GPGSV,3,1,12,18,65,020,42,22,61,286,25,21,59,085,29,51,48,160,32*7D
08:28:20.40,17261,$GPGSV,3,2,12,06,46,292,33,27,40,305,31,14,32,188,32,03,26,309,31*78
08:28:20.42,17282,$GPGSV,3,3,12,15,24,046,37,24,13,093,,16,12,265,28,19,09,322,36*78
08:28:20.45,17305,$GPRMC,162822.000,A,3400.5959,N,11823.4099,W,0.06,359.95,120214,,,A*7A
08:28:20.45,17315,$GPVTG,359.95,T,,M,0.06,N,0.11,K,A*38
08:28:21.35,18210,$GPGGA,162823.000,3400.5958,N,11823.4099,W,1,10,0.95,31.0,M,-33.9,M,,*62
08:28:21.37,18228,$GPGSA,A,3,18,06,03,27,14,22,21,15,16,19,,,1.25,0.95,0.80*04
08:28:21.39,18250,$GPGSV,3,1,12,18,65,020,42,22,61,286,25,21,59,085,29,51,48,160,32*7D
08:28:21.41,18270,$GPGSV,3,2,12,06,46,292,33,27,40,305,31,14,32,188,31,03,26,309,31*7B
08:28:21.44,18291,$GPGSV,3,3,12,15,24,046,37,24,13,093,,16,12,265,28,19,09,322,36*78
08:28:21.46,18314,$GPRMC,162823.000,A,3400.5958,N,11823.4099,W,0.09,359.95,120214,,,A*75
08:28:21.47,18324,$GPVTG,359.95,T,,M,0.09,N,0.17,K,A*31
08:28:22.33,19190,$GPGGA,162824.000,3400.5960,N,11823.4095,W,1,10,0.98,31.3,M,-33.9,M,,*6C
08:28:22.35,19208,$GPGSA,A,3,18,06,03,27,14,22,21,15,16,19,,,1.67,0.98,1.35*00
08:28:22.37,19230,$GPGSV,3,1,12,18,65,020,42,22,61,286,25,21,59,085,30,51,48,160,32*75
08:28:22.39,19250,$GPGSV,3,2,12,06,46,292,33,27,40,305,31,14,32,188,31,03,26,309,31*7B
08:28:22.41,19272,$GPGSV,3,3,12,15,24,046,37,24,13,093,,16,12,265,29,19,09,322,36*79
08:28:22.44,19294,$GPRMC,162824.000,A,3400.5960,N,11823.4095,W,0.20,359.95,120214,,,A*7E
08:28:22.44,19304,$GPVTG,359.95,T,,M,0.20,N,0.37,K,A*38
08:28:23.33,20192,$GPGGA,162825.000,3400.5958,N,11823.4095,W,1,10,0.95,31.4,M,-33.9,M,,*6C
08:28:23.35,20210,$GPGSA,A,3,18,06,03,27,14,22,21,15,16,19,,,1.25,0.95,0.80*04
08:28:23.37,20232,$GPGSV,3,1,12,18,65,020,42,22,61,286,25,21,59,085,30,51,48,160,32*75
08:28:23.39,20252,$GPGSV,3,2,12,06,46,292,33,27,40,305,31,14,32,188,31,03,26,309,31*7B
08:28:23.41,20274,$GPGSV,3,3,12,15,24,046,37,24,13,093,,16,12,265,29,19,09,322,36*79
08:28:23.44,20296,$GPRMC,162825.000,A,3400.5958,N,11823.4095,W,0.05,359.95,120214,,,A*73
08:28:23.44,20306,$GPVTG,359.95,T,,M,0.05,N,0.09,K,A*32
08:28:24.35,21208,$GPGGA,162826.000,3400.5957,N,11823.4096,W,1,10,0.95,31.4,M,-33.9,M,,*63
08:28:24.37,21226,$GPGSA,A,3,18,06,03,27,14,22,21,15,16,19,,,1.25,0.95,0.80*04
08:28:24.39,21248,$GPGSV,3,1,12,18,65,020,42,22,61,286,25,21,59,085,30,51,48,160,32*75
08:28:24.41,21269,$GPGSV,3,2,12,06,46,292,33,27,40,305,31,14,33,188,31,03,26,309,31*7A
08:28:24.43,21290,$GPGSV,3,3,12,15,24,046,37,24,13,093,,16,12,265,29,19,09,322,36*79
08:28:24.45,21312,$GPRMC,162826.000,A,3400.5957,N,11823.4096,W,0.03,359.95,120214,,,A*7A
08:28:24.47,21323,$GPVTG,359.95,T,,M,0.03,N,0.06,K,A*3B
08:28:25.34,22200,$GPGGA,162827.000,3400.5956,N,11823.4095,W,1,10,0.95,31.6,M,-33.9,M,,*62
08:28:25.36,22219,$GPGSA,A,3,18,06,03,27,14,22,21,15,16,19,,,1.25,0.95,0.80*04
08:28:25.38,22240,$GPGSV,3,1,12,18,65,020,42,22,61,286,24,21,59,085,30,51,48,160,32*74
08:28:25.40,22260,$GPGSV,3,2,12,06,46,292,33,27,40,305,31,14,33,188,31,03,26,309,31*7A
08:28:25.42,22282,$GPGSV,3,3,12,15,24,046,38,24,13,093,,16,12,265,29,19,09,322,36*76
08:28:25.44,22304,$GPRMC,162827.000,A,3400.5956,N,11823.4095,W,0.06,359.95,120214,,,A*7C
08:28:25.45,22315,$GPVTG,359.95,T,,M,0.06,N,0.11,K,A*38
08:28:26.33,23193,$GPGGA,162828.000,3400.5951,N,11823.4095,W,1,9,0.96,31.8,M,-33.9,M,,*5F
08:28:26.35,23212,$GPGSA,A,3,18,06,03,27,14,21,15,16,19,,,,1.27,0.96,0.84*01
08:28:26.37,23232,$GPGSV,3,1,12,18,65,020,42,22,61,286,23,21,59,085,30,51,48,160,33*72
08:28:26.40,23254,$GPGSV,3,2,12,06,46,292,31,27,40,305,32,14,33,188,32,03,26,309,32*7B
08:28:26.41,23274,$GPGSV,3,3,12,15,24,046,39,24,13,093,,16,12,265,28,19,09,322,36*76
08:28:26.44,23296,$GPRMC,162828.000,A,3400.5951,N,11823.4095,W,0.06,359.95,120214,,,A*74
08:28:26.45,23308,$GPVTG,359.95,T,,M,0.06,N,0.12,K,A*3B
08:28:27.36,24215,$GPGGA,162829.000,3400.5947,N,11823.4093,W,1,9,0.96,31.6,M,-33.9,M,,*51
08:28:27.37,24233,$GPGSA,A,3,18,06,03,27,14,21,15,16,19,,,,1.27,0.96,0.84*01
08:28:27.40,24253,$GPGSV,3,1,12,18,65,020,42,22,61,286,23,21,59,085,30,51,48,160,33*72
08:28:27.41,24275,$GPGSV,3,2,12,06,46,292,32,27,40,305,33,14,33,188,33,03,26,309,32*78
08:28:27.44,24295,$GPGSV,3,3,12,15,24,046,40,24,13,093,,16,12,265,28,19,09,322,36*78
08:28:27.46,24317,$GPRMC,162829.000,A,3400.5947,N,11823.4093,W,0.07,359.95,120214,,,A*75
08:28:27.47,24329,$GPVTG,359.95,T,,M,0.07,N,0.13,K,A*3B
08:28:28.35,25213,$GPGGA,162830.000,3400.5944,N,11823.4093,W,1,10,0.95,31.8,M,-33.9,M,,*6F
08:28:28.37,25232,$GPGSA,A,3,18,06,03,27,14,22,21,15,16,19,,,1.25,0.95,0.80*04
08:28:28.40,25253,$GPGSV,3,1,12,18,65,020,42,22,61,286,24,21,59,085,30,51,48,160,32*74
08:28:28.41,25273,$GPGSV,3,2,12,06,46,292,32,27,40,305,33,14,33,188,33,03,26,309,33*79
08:28:28.44,25295,$GPGSV,3,3,12,15,24,046,40,24,13,093,,16,12,265,27,19,09,322,36*77
08:28:28.46,25317,$GPRMC,162830.000,A,3400.5944,N,11823.4093,W,0.04,359.95,120214,,,A*7D
08:28:28.47,25328,$GPVTG,359.95,T,,M,0.04,N,0.07,K,A*3D
08:28:29.36,26215,$GPGGA,162831.000,3400.5941,N,11823.4091,W,1,10,0.95,32.0,M,-33.9,M,,*62
08:28:29.37,26233,$GPGSA,A,3,18,06,03,27,14,22,21,15,16,19,,,1.25,0.95,0.80*04
08:28:29.40,26255,$GPGSV,3,1,12,18,65,020,41,22,61,286,25,21,59,085,30,51,48,160,32*76
08:28:29.41,26275,$GPGSV,3,2,12,06,46,292,32,27,40,305,34,14,33,188,34,03,26,309,34*7E
08:28:29.44,26297,$GPGSV,3,3,12,15,24,046,40,24,13,093,,16,12,265,26,19,09,322,36*76
08:28:29.46,26319,$GPRMC,162831.000,A,3400.5941,N,11823.4091,W,0.09,359.95,120214,,,A*76
08:28:29.47,26330,$GPVTG,359.95,T,,M,0.09,N,0.17,K,A*31
08:28:30.34,27200,$GPGGA,162832.000,3400.5941,N,11823.4091,W,1,10,0.95,32.0,M,-33.9,M,,*61
08:28:30.36,27219,$GPGSA,A,3,18,06,03,27,14,22,21,15,16,19,,,1.25,0.95,0.80*04
08:28:30.38,27240,$GPGSV,3,1,12,18,65,020,41,22,61,286,26,21,59,085,30,51,48,160,32*75
08:28:30.41,27261,$GPGSV,3,2,12,06,46,292,31,27,40,305,34,14,33,188,34,03,26,309,35*7C
08:28:30.42,27282,$GPGSV,3,3,12,15,24,046,40,24,13,093,,16,12,265,26,19,09,322,36*76
08:28:30.44,27304,$GPRMC,162832.000,A,3400.5941,N,11823.4091,W,0.11,359.95,120214,,,A*7C
08:28:30.46,27315,$GPVTG,359.95,T,,M,0.11,N,0.21,K,A*3D
08:28:31.34,28197,$GPGGA,162833.000,3400.5941,N,11823.4091,W,1,9,1.02,32.0,M,-33.9,M,,*57
08:28:31.36,28215,$GPGSA,A,3,18,06,03,27,14,22,21,15,19,,,,1.32,1.02,0.83*09
08:28:31.38,28235,$GPGSV,3,1,12,18,65,020,41,22,61,286,26,21,58,085,29,51,48,160,32*7C
08:28:31.40,28257,$GPGSV,3,2,12,06,46,292,30,27,40,305,33,14,33,188,34,03,26,309,35*7A
08:28:31.42,28277,$GPGSV,3,3,12,15,24,046,39,24,13,093,,16,12,265,19,19,09,322,37*75
08:28:31.44,28299,$GPRMC,162833.000,A,3400.5941,N,11823.4091,W,0.06,359.95,120214,,,A*7B
08:28:31.45,28311,$GPVTG,359.95,T,,M,0.06,N,0.11,K,A*38
08:28:32.34,29201,$GPGGA,162834.000,3400.5941,N,11823.4091,W,1,9,1.02,32.0,M,-33.9,M,,*50
08:28:32.36,29219,$GPGSA,A,3,18,06,03,27,14,22,21,15,19,,,,1.32,1.02,0.83*09
08:28:32.38,29239,$GPGSV,3,1,12,18,65,020,41,22,61,286,25,21,58,085,28,51,48,160,33*7F
08:28:32.40,29261,$GPGSV,3,2,12,06,46,292,31,27,40,305,33,14,33,188,34,03,26,309,36*78
08:28:32.43,29281,$GPGSV,3,3,12,15,24,046,39,24,13,093,,16,12,265,19,19,09,322,38*7A
08:28:32.44,29303,$GPRMC,162834.000,A,3400.5941,N,11823.4091,W,0.05,359.95,120214,,,A*7F
08:28:32.46,29314,$GPVTG,359.95,T,,M,0.05,N,0.09,K,A*32
08:28:33.38,30235,$GPGGA,162835.000,3400.5940,N,11823.4091,W,1,10,0.95,32.0,M,-33.9,M,,*67
08:28:33.39,30253,$GPGSA,A,3,18,06,03,27,14,22,21,15,16,19,,,1.25,0.95,0.80*04
08:28:33.42,30275,$GPGSV,3,1,12,18,65,020,41,22,61,286,25,21,58,085,27,51,48,160,33*70
08:28:33.43,30295,$GPGSV,3,2,12,06,46,292,32,27,40,305,33,14,33,188,35,03,26,309,36*7A
08:28:33.46,30317,$GPGSV,3,3,12,15,24,046,40,24,13,093,,16,12,265,29,19,09,322,39*76
08:28:33.48,30339,$GPRMC,162835.000,A,3400.5940,N,11823.4091,W,0.06,359.95,120214,,,A*7C
08:28:33.49,30349,$GPVTG,359.95,T,,M,0.06,N,0.12,K,A*3B
08:28:34.35,31209,$GPGGA,162836.000,3400.5940,N,11823.4089,W,1,9,0.96,32.3,M,-33.9,M,,*55
08:28:34.37,31227,$GPGSA,A,3,18,06,03,27,14,21,15,16,19,,,,1.27,0.96,0.84*01
08:28:34.39,31248,$GPGSV,3,1,12,18,65,020,41,22,61,286,24,21,58,085,27,51,48,160,33*71
08:28:34.41,31269,$GPGSV,3,2,12,06,46,292,33,27,40,305,34,14,33,188,36,03,26,309,36*7F
08:28:34.43,31289,$GPGSV,3,3,12,15,24,046,40,24,13,093,,16,12,265,30,19,09,322,39*7E
08:28:34.45,31311,$GPRMC,162836.000,A,3400.5940,N,11823.4089,W,0.03,359.95,120214,,,A*73
08:28:34.46,31323,$GPVTG,359.95,T,,M,0.03,N,0.06,K,A*3B
08:28:35.34,32198,$GPGGA,162837.000,3400.5940,N,11823.4089,W,1,9,0.96,32.3,M,-33.9,M,,*54
08:28:35.36,32216,$GPGSA,A,3,18,06,03,27,14,21,15,16,19,,,,1.27,0.96,0.84*01
08:28:35.43,32292,$GPGSV,3,1,12,18,65,020,41,22,61,286,22,21,58,085,27,51,48,160,34*70
08:28:35.43,32293,$GPGSV,3,2,12,06,46,292,34,27,40,305,35,14,33,188,36,03,26,309,36*79
08:28:35.43,32294,$GPGSV,3,3,12,15,24,046,41,24,13,093,,16,12,265,31,19,09,322,39*7E
08:28:35.44,32299,$GPRMC,162837.000,A,3400.5940,N,11823.4089,W,0.05,359.95,120214,,,A*74
08:28:35.45,32311,$GPVTG,359.95,T,,M,0.05,N,0.09,K,A*32
08:28:36.33,33191,$GPGGA,162838.000,3400.5940,N,11823.4089,W,1,9,0.96,32.4,M,-33.9,M,,*5C
08:28:36.35,33209,$GPGSA,A,3,18,06,03,27,14,21,15,16,19,,,,1.27,0.96,0.84*01
08:28:36.38,33234,$GPGSV,3,1,12,18,65,020,41,22,61,286,22,21,58,085,27,51,48,160,33*77
08:28:36.39,33251,$GPGSV,3,2,12,06,46,292,34,27,40,305,36,14,33,188,36,03,26,309,36*7A
08:28:36.41,33271,$GPGSV,3,3,12,15,24,046,41,24,13,093,,16,12,265,31,19,09,322,39*7E
08:28:36.43,33293,$GPRMC,162838.000,A,3400.5940,N,11823.4089,W,0.01,359.95,120214,,,A*7F
08:28:36.45,33305,$GPVTG,359.95,T,,M,0.01,N,0.01,K,A*3E
08:28:37.34,34195,$GPGGA,162839.000,3400.5940,N,11823.4089,W,1,9,0.96,32.4,M,-33.9,M,,*5D
08:28:37.36,34213,$GPGSA,A,3,18,06,03,27,14,21,15,16,19,,,,1.27,0.96,0.84*01
08:28:37.38,34233,$GPGSV,3,1,12,18,65,020,41,22,61,286,23,21,58,085,27,51,48,160,34*71
08:28:37.39,34255,$GPGSV,3,2,12,06,46,292,34,27,40,304,36,14,33,188,37,03,26,309,36*7A
08:28:37.42,34275,$GPGSV,3,3,12,15,24,046,42,24,13,093,,16,12,265,30,19,09,322,39*7C
08:28:37.44,34297,$GPRMC,162839.000,A,3400.5940,N,11823.4089,W,0.03,359.95,120214,,,A*7C
08:28:37.45,34309,$GPVTG,359.95,T,,M,0.03,N,0.06,K,A*3B
08:28:38.35,35206,$GPGGA,162840.000,3400.5939,N,11823.4089,W,1,10,0.95,32.4,M,-33.9,M,,*66
08:28:38.36,35224,$GPGSA,A,3,18,06,03,27,14,22,21,15,16,19,,,1.25,0.95,0.80*04
08:28:38.39,35252,$GPGSV,3,1,12,18,65,020,41,22,61,286,30,21,58,085,28,51,48,160,34*7C
08:28:38.42,35275,$GPGSV,3,2,12,06,46,292,34,27,40,304,36,14,33,188,37,03,26,309,36*7A
08:28:38.43,35288,$GPGSV,3,3,12,15,24,046,42,24,13,093,,16,12,265,30,19,09,322,40*72
08:28:38.45,35310,$GPRMC,162840.000,A,3400.5939,N,11823.4089,W,0.08,359.95,120214,,,A*77
08:28:38.46,35320,$GPVTG,359.95,T,,M,0.08,N,0.16,K,A*31
08:28:39.38,36234,$GPGGA,162839.000,3400.5935,N,11823.4088,W,1,10,0.95,32.2,M,-33.9,M,,*63
08:28:39.39,36252,$GPGSA,A,3,18,06,03,27,14,22,21,15,16,19,,,1.25,0.95,0.80*04
08:28:39.42,36273,$GPGSV,3,1,12,18,65,020,41,22,61,286,29,21,58,085,27,51,48,160,34*7B
08:28:39.43,36293,$GPGSV,3,2,12,06,46,292,34,27,40,304,35,14,33,188,37,03,26,309,36*79
08:28:39.46,36315,$GPGSV,3,3,12,15,24,046,42,24,13,093,,16,12,265,30,19,09,322,40*72
08:28:39.48,36337,$GPRMC,162839.000,A,3400.5935,N,11823.4088,W,0.03,359.95,120214,,,A*7F
08:28:39.49,36348,$GPVTG,359.95,T,,M,0.03,N,0.06,K,A*3B
08:28:40.32,37174,$GPGGA,162840.000,3400.5931,N,11823.4087,W,1,8,1.02,31.6,M,-33.9,M,,*57
08:28:40.33,37190,$GPGSA,A,3,18,06,03,27,14,15,16,19,,,,,1.33,1.02,0.84*0B
08:28:40.36,37212,$GPGSV,3,1,12,18,65,020,41,22,61,286,22,21,58,085,25,51,48,160,34*72
08:28:40.38,37234,$GPGSV,3,2,12,06,46,292,34,27,40,304,35,14,33,188,37,03,26,309,36*79
08:28:40.39,37254,$GPGSV,3,3,12,15,24,046,42,24,13,093,,16,12,265,30,19,09,322,40*72
08:28:40.42,37276,$GPRMC,162840.000,A,3400.5931,N,11823.4087,W,0.03,359.95,120214,,,A*7A
08:28:40.43,37287,$GPVTG,359.95,T,,M,0.03,N,0.05,K,A*38
08:28:41.34,38195,$GPGGA,162841.000,3400.5926,N,11823.4082,W,1,9,1.02,31.2,M,-33.9,M,,*50
08:28:41.36,38213,$GPGSA,A,3,18,06,03,27,14,22,15,16,19,,,,1.30,1.02,0.81*0D
08:28:41.38,38233,$GPGSV,3,1,12,18,65,020,41,22,61,286,23,21,58,085,24,51,48,160,33*75
08:28:41.40,38255,$GPGSV,3,2,12,06,46,292,34,27,40,304,36,14,33,188,37,03,26,309,36*7A
08:28:41.42,38275,$GPGSV,3,3,12,15,24,046,42,24,13,093,,16,12,265,30,19,09,322,39*7C
08:28:41.44,38297,$GPRMC,162841.000,A,3400.5926,N,11823.4082,W,0.06,359.95,120214,,,A*7D
08:28:41.45,38309,$GPVTG,359.95,T,,M,0.06,N,0.12,K,A*3B
08:28:42.33,39186,$GPGGA,162842.000,3400.5928,N,11823.4082,W,1,9,0.96,32.1,M,-33.9,M,,*51
08:28:42.35,39205,$GPGSA,A,3,18,06,03,27,14,21,15,16,19,,,,1.27,0.96,0.84*01
08:28:42.37,39225,$GPGSV,3,1,12,18,65,020,41,22,61,286,22,21,58,085,24,51,48,160,32*75
08:28:42.39,39247,$GPGSV,3,2,12,06,46,292,34,27,40,304,36,14,33,188,37,03,26,309,36*7A
08:28:42.41,39267,$GPGSV,3,3,12,15,24,046,42,24,13,093,,16,12,265,30,19,09,322,38*7D
08:28:42.43,39288,$GPRMC,162842.000,A,3400.5928,N,11823.4082,W,0.03,359.95,120214,,,A*75
08:28:42.44,39300,$GPVTG,359.95,T,,M,0.03,N,0.05,K,A*38
08:28:43.33,40192,$GPGGA,162843.000,3400.5929,N,11823.4081,W,1,9,0.96,32.7,M,-33.9,M,,*54
08:28:43.35,40210,$GPGSA,A,3,18,06,03,27,14,21,15,16,19,,,,1.27,0.96,0.84*01
08:28:43.37,40230,$GPGSV,3,1,12,18,65,020,41,22,61,286,21,21,58,085,24,51,48,160,32*76
08:28:43.39,40252,$GPGSV,3,2,12,06,46,292,34,27,40,304,36,14,33,188,36,03,26,309,36*7B
08:28:43.42,40272,$GPGSV,3,3,12,15,24,046,42,24,13,093,,16,12,265,30,19,09,322,38*7D
08:28:43.44,40294,$GPRMC,162843.000,A,3400.5929,N,11823.4081,W,0.08,359.95,120214,,,A*7D
08:28:43.45,40305,$GPVTG,359.95,T,,M,0.08,N,0.15,K,A*32
08:28:44.33,41191,$GPGGA,162844.000,3400.5927,N,11823.4080,W,1,9,0.96,33.4,M,-33.9,M,,*5E
08:28:44.35,41210,$GPGSA,A,3,18,06,03,27,14,21,15,16,19,,,,1.27,0.96,0.84*01
08:28:44.37,41230,$GPGSV,3,1,12,18,65,020,41,22,61,286,20,21,58,085,24,51,48,160,32*77
08:28:44.39,41252,$GPGSV,3,2,12,06,46,292,35,27,40,304,36,14,33,188,36,03,26,309,36*7A
08:28:44.42,41272,$GPGSV,3,3,12,15,24,046,42,24,13,093,,16,12,265,30,19,09,322,38*7D
08:28:44.44,41294,$GPRMC,162844.000,A,3400.5927,N,11823.4080,W,0.05,359.95,120214,,,A*78
08:28:44.45,41306,$GPVTG,359.95,T,,M,0.05,N,0.08,K,A*33
08:28:45.35,42211,$GPGGA,162845.000,3400.5926,N,11823.4079,W,1,9,0.96,33.0,M,-33.9,M,,*5C
08:28:45.37,42229,$GPGSA,A,3,18,06,03,27,14,21,15,16,19,,,,1.27,0.96,0.84*01
08:28:45.39,42250,$GPGSV,3,1,12,18,65,020,41,22,61,286,20,21,58,085,24,51,48,160,32*77
08:28:45.42,42271,$GPGSV,3,2,12,06,46,292,35,27,40,304,36,14,33,188,36,03,26,309,36*7A
08:28:45.43,42291,$GPGSV,3,3,12,15,24,046,42,24,13,093,,16,12,265,30,19,09,322,38*7D
08:28:45.45,42313,$GPRMC,162845.000,A,3400.5926,N,11823.4079,W,0.01,359.95,120214,,,A*7A
08:28:45.47,42325,$GPVTG,359.95,T,,M,0.01,N,0.01,K,A*3E
08:28:46.34,43195,$GPGGA,162846.000,3400.5924,N,11823.4080,W,1,9,0.96,33.1,M,-33.9,M,,*5A
08:28:46.35,43213,$GPGSA,A,3,18,06,03,27,14,21,15,16,19,,,,1.27,0.96,0.84*01
08:28:46.38,43233,$GPGSV,3,1,12,18,65,020,41,22,61,286,21,21,58,085,25,51,48,160,32*77
08:28:46.40,43255,$GPGSV,3,2,12,06,46,292,35,27,40,304,37,14,33,188,36,03,26,309,36*7B
08:28:46.42,43275,$GPGSV,3,3,12,15,24,046,42,24,13,093,,16,12,265,30,19,09,322,38*7D
08:28:46.44,43297,$GPRMC,162846.000,A,3400.5924,N,11823.4080,W,0.00,359.95,120214,,,A*7C
08:28:46.45,43309,$GPVTG,359.95,T,,M,0.00,N,0.01,K,A*3F
08:28:47.35,44201,$GPGGA,162847.000,3400.5924,N,11823.4077,W,1,9,1.00,33.1,M,-33.9,M,,*5D
08:28:47.36,44219,$GPGSA,A,3,18,06,03,27,14,21,15,16,19,,,,1.83,1.00,1.53*0A
08:28:47.38,44240,$GPGSV,3,1,12,18,65,020,41,22,61,286,22,21,58,085,25,51,48,160,32*74
08:28:47.40,44261,$GPGSV,3,2,12,06,46,292,35,27,40,304,37,14,33,188,36,03,26,309,36*7B
08:28:47.42,44281,$GPGSV,3,3,12,15,24,046,42,24,13,093,,16,12,265,30,19,09,322,38*7D
08:28:47.45,44303,$GPRMC,162847.000,A,3400.5924,N,11823.4077,W,0.00,359.95,120214,,,A*75
08:28:47.45,44315,$GPVTG,359.95,T,,M,0.00,N,0.01,K,A*3F
08:28:48.35,45211,$GPGGA,162848.000,3400.5922,N,11823.4077,W,1,9,1.00,32.9,M,-33.9,M,,*5D
08:28:48.37,45229,$GPGSA,A,3,18,06,03,27,14,21,15,16,19,,,,1.83,1.00,1.53*0A
08:28:48.39,45249,$GPGSV,3,1,12,18,65,020,41,22,61,286,22,21,58,085,25,51,48,160,32*74
08:28:48.42,45271,$GPGSV,3,2,12,06,47,291,35,27,40,304,37,14,33,188,36,03,26,309,36*79
08:28:48.43,45291,$GPGSV,3,3,12,15,24,046,42,24,13,093,,16,12,265,30,19,09,322,38*7D
08:28:48.45,45313,$GPRMC,162848.000,A,3400.5922,N,11823.4077,W,0.00,359.95,120214,,,A*7C
08:28:48.47,45325,$GPVTG,359.95,T,,M,0.00,N,0.01,K,A*3F
08:28:49.35,46207,$GPGGA,162849.000,3400.5923,N,11823.4077,W,1,9,1.00,33.4,M,-33.9,M,,*51
08:28:49.37,46225,$GPGSA,A,3,18,06,03,27,14,21,15,16,19,,,,1.83,1.00,1.53*0A
08:28:49.38,46245,$GPGSV,3,1,12,18,65,020,41,22,61,286,23,21,58,085,26,51,48,160,32*76
08:28:49.41,46267,$GPGSV,3,2,12,06,47,291,35,27,40,304,37,14,33,188,36,03,26,309,36*79
08:28:49.43,46287,$GPGSV,3,3,12,15,24,046,42,24,13,093,,16,12,265,30,19,09,322,38*7D
08:28:49.45,46309,$GPRMC,162849.000,A,3400.5923,N,11823.4077,W,0.00,359.95,120214,,,A*7C
08:28:49.46,46321,$GPVTG,359.95,T,,M,0.00,N,0.00,K,A*3E
08:28:50.35,47208,$GPGGA,162850.000,3400.5922,N,11823.4078,W,1,9,1.00,33.4,M,-33.9,M,,*57
08:28:50.37,47226,$GPGSA,A,3,18,06,03,27,14,21,15,16,19,,,,1.83,1.00,1.53*0A
08:28:50.38,47246,$GPGSV,3,1,12,18,65,020,41,22,61,286,23,21,58,085,26,51,48,160,32*76
08:28:50.41,47268,$GPGSV,3,2,12,06,47,291,35,27,40,304,37,14,33,188,36,03,26,309,36*79
08:28:50.43,47288,$GPGSV,3,3,12,15,24,046,42,24,13,093,,16,12,265,30,19,09,322,38*7D
08:28:50.45,47310,$GPRMC,162850.000,A,3400.5922,N,11823.4078,W,0.00,359.95,120214,,,A*7A
08:28:50.46,47322,$GPVTG,359.95,T,,M,0.00,N,0.00,K,A*3E
08:28:51.37,48223,$GPGGA,162851.000,3400.5920,N,11823.4079,W,1,9,1.00,33.0,M,-33.9,M,,*51
08:28:51.39,48241,$GPGSA,A,3,18,06,03,27,14,21,15,16,19,,,,1.83,1.00,1.53*0A
08:28:51.41,48261,$GPGSV,3,1,12,18,65,020,41,22,61,286,23,21,58,085,26,51,48,160,32*76
08:28:51.43,48282,$GPGSV,3,2,12,06,47,291,35,27,40,304,37,14,33,188,36,03,26,309,36*79
08:28:51.45,48303,$GPGSV,3,3,12,15,24,046,42,24,13,093,,16,12,265,30,19,09,322,37*72
08:28:51.47,48325,$GPRMC,162851.000,A,3400.5920,N,11823.4079,W,0.01,359.95,120214,,,A*79
08:28:51.48,48336,$GPVTG,359.95,T,,M,0.01,N,0.01,K,A*3E
08:28:52.36,49212,$GPGGA,162852.000,3400.5920,N,11823.4079,W,1,9,1.00,33.0,M,-33.9,M,,*52
08:28:52.37,49230,$GPGSA,A,3,18,06,03,27,14,21,15,16,19,,,,1.83,1.00,1.53*0A
08:28:52.39,49250,$GPGSV,3,1,12,18,65,020,41,22,61,286,23,21,58,085,26,51,48,160,32*76
08:28:52.42,49272,$GPGSV,3,2,12,06,47,291,35,27,40,304,37,14,33,188,36,03,26,309,36*79
08:28:52.43,49292,$GPGSV,3,3,12,15,24,046,42,24,13,093,,16,12,265,30,19,09,322,37*72
08:28:52.46,49314,$GPRMC,162852.000,A,3400.5920,N,11823.4079,W,0.00,359.95,120214,,,A*7B
08:28:52.46,49326,$GPVTG,359.95,T,,M,0.00,N,0.01,K,A*3F
08:28:53.39,50254,$GPGGA,162853.000,3400.5917,N,11823.4077,W,2,10,0.98,33.0,M,-33.9,M,0000,0000*62
08:28:53.42,50272,$GPGSA,A,3,18,06,03,27,14,22,21,15,16,19,,,1.67,0.98,1.35*00
08:28:53.43,50294,$GPGSV,3,1,12,18,65,020,41,22,61,286,24,21,58,085,26,51,48,160,31*72
08:28:53.46,50316,$GPGSV,3,2,12,06,47,291,35,27,40,304,37,14,33,188,36,03,26,309,36*79
08:28:53.48,50336,$GPGSV,3,3,12,15,24,046,42,24,13,093,,16,12,265,30,19,09,322,37*72
08:28:53.50,50358,$GPRMC,162853.000,A,3400.5917,N,11823.4077,W,0.05,359.95,120214,,,D*70
08:28:53.51,50369,$GPVTG,359.95,T,,M,0.05,N,0.09,K,D*37
08:28:54.38,51237,$GPGGA,162854.000,3400.5916,N,11823.4076,W,2,10,0.98,33.1,M,-33.9,M,0000,0000*64
08:28:54.40,51256,$GPGSA,A,3,18,06,03,27,14,22,21,15,16,19,,,1.67,0.98,1.35*00
08:28:54.42,51278,$GPGSV,3,1,12,18,65,020,41,22,61,286,24,21,58,085,26,51,48,160,31*72
08:28:54.44,51299,$GPGSV,3,2,12,06,47,291,36,27,40,304,37,14,33,188,36,03,26,309,36*7A
08:28:54.46,51319,$GPGSV,3,3,12,15,24,046,42,24,13,093,,16,12,265,30,19,09,322,37*72
08:28:54.48,51341,$GPRMC,162854.000,A,3400.5916,N,11823.4076,W,0.08,359.95,120214,,,D*7A
08:28:54.50,51353,$GPVTG,359.95,T,,M,0.08,N,0.14,K,D*36
08:28:55.39,52249,$GPGGA,162855.000,3400.5914,N,11823.4075,W,2,10,0.98,32.8,M,-33.9,M,0000,0000*6C
08:28:55.41,52267,$GPGSA,A,3,18,06,03,27,14,22,21,15,16,19,,,1.67,0.98,1.35*00
08:28:55.43,52288,$GPGSV,3,1,12,18,65,020,41,22,61,286,24,21,58,085,26,51,48,160,31*72
08:28:55.45,52310,$GPGSV,3,2,12,06,47,291,36,27,40,304,37,14,33,188,36,03,26,309,36*7A
08:28:55.47,52331,$GPGSV,3,3,12,15,24,046,42,24,13,093,,16,12,265,30,19,09,322,37*72
08:28:55.50,52353,$GPRMC,162855.000,A,3400.5914,N,11823.4075,W,0.10,359.95,120214,,,D*73
08:28:55.50,52364,$GPVTG,359.95,T,,M,0.10,N,0.18,K,D*33
08:28:56.38,53235,$GPGGA,162856.000,3400.5911,N,11823.4075,W,2,9,1.00,32.3,M,-33.9,M,0000,0000*59
08:28:56.39,53253,$GPGSA,A,3,18,06,03,27,14,21,15,16,19,,,,1.83,1.00,1.53*0A
08:28:56.42,53275,$GPGSV,3,1,12,18,65,020,41,22,61,286,24,21,58,085,26,51,48,160,31*72
08:28:56.44,53295,$GPGSV,3,2,12,06,47,291,36,27,40,304,37,14,33,188,36,03,26,309,36*7A
08:28:56.46,53317,$GPGSV,3,3,12,15,24,046,42,24,13,093,,16,12,265,30,19,09,322,37*72
08:28:56.48,53339,$GPRMC,162856.000,A,3400.5911,N,11823.4075,W,0.14,359.95,120214,,,D*71
08:28:56.49,53349,$GPVTG,359.95,T,,M,0.14,N,0.25,K,D*39
08:28:57.39,54241,$GPGGA,162857.000,3400.5913,N,11823.4075,W,2,9,1.00,32.2,M,-33.9,M,0000,0000*5B
08:28:57.40,54260,$GPGSA,A,3,18,06,03,27,14,21,15,16,19,,,,1.83,1.00,1.53*0A
08:28:57.43,54281,$GPGSV,3,1,12,18,65,020,41,22,61,286,24,21,58,085,26,51,48,160,31*72
08:28:57.44,54302,$GPGSV,3,2,12,06,47,291,36,27,40,304,37,14,33,188,35,03,26,309,36*79
08:28:57.46,54324,$GPGSV,3,3,12,15,24,046,42,24,13,093,,16,12,265,30,19,09,322,37*72
08:28:57.49,54345,$GPRMC,162857.000,A,3400.5913,N,11823.4075,W,0.09,359.95,120214,,,D*7E
08:28:57.50,54356,$GPVTG,359.95,T,,M,0.09,N,0.16,K,D*35
08:28:58.36,55222,$GPGGA,162858.000,3400.5913,N,11823.4076,W,2,9,1.00,32.2,M,-33.9,M,0000,0000*57
08:28:58.39,55240,$GPGSA,A,3,18,06,03,27,14,21,15,16,19,,,,1.83,1.00,1.53*0A
08:28:58.40,55262,$GPGSV,3,1,12,18,65,020,41,22,61,286,24,21,58,085,26,51,48,160,31*72
08:28:58.43,55282,$GPGSV,3,2,12,06,47,291,36,27,40,304,37,14,33,188,35,03,26,309,36*79
08:28:58.45,55304,$GPGSV,3,3,12,15,24,046,42,24,13,093,,16,12,264,31,19,09,322,37*72
08:28:58.46,55326,$GPRMC,162858.000,A,3400.5913,N,11823.4076,W,0.07,359.95,120214,,,D*7C
08:28:58.48,55337,$GPVTG,359.95,T,,M,0.07,N,0.13,K,D*3E
08:28:59.37,56227,$GPGGA,162859.000,3400.5913,N,11823.4075,W,2,9,1.00,32.1,M,-33.9,M,0000,0000*56
08:28:59.39,56245,$GPGSA,A,3,18,06,03,27,14,21,15,16,19,,,,1.83,1.00,1.53*0A
08:28:59.41,56267,$GPGSV,3,1,12,18,65,020,41,22,61,286,24,21,58,085,26,51,48,160,31*72
08:28:59.43,56288,$GPGSV,3,2,12,06,47,291,36,27,40,304,37,14,33,188,35,03,26,309,36*79
08:28:59.45,56309,$GPGSV,3,3,12,15,24,046,42,24,13,093,,16,12,264,32,19,09,322,37*71
08:28:59.47,56331,$GPRMC,162859.000,A,3400.5913,N,11823.4075,W,0.06,359.95,120214,,,D*7F
08:28:59.48,56341,$GPVTG,359.95,T,,M,0.06,N,0.10,K,D*3C
08:29:00.36,57223,$GPGGA,162900.000,3400.5913,N,11823.4073,W,2,9,1.00,32.1,M,-33.9,M,0000,0000*5D
08:29:00.39,57241,$GPGSA,A,3,18,06,03,27,14,21,15,16,19,,,,1.83,1.00,1.53*0A
08:29:00.40,57263,$GPGSV,3,1,12,18,65,020,41,22,61,286,24,21,58,085,27,51,48,160,31*73
08:29:00.43,57283,$GPGSV,3,2,12,06,47,291,37,27,40,304,37,14,33,188,35,03,26,309,36*78
08:29:00.45,57304,$GPGSV,3,3,12,15,24,046,42,24,13,093,,16,12,264,32,19,09,322,37*71
08:29:00.47,57326,$GPRMC,162900.000,A,3400.5913,N,11823.4073,W,0.06,359.95,120214,,,D*74
08:29:00.48,57337,$GPVTG,359.95,T,,M,0.06,N,0.11,K,D*3D
08:29:01.37,58227,$GPGGA,162901.000,3400.5912,N,11823.4070,W,2,9,1.00,32.0,M,-33.9,M,0000,0000*5F
08:29:01.39,58245,$GPGSA,A,3,18,06,03,27,14,21,15,16,19,,,,1.83,1.00,1.53*0A
08:29:01.41,58267,$GPGSV,3,1,12,18,65,020,41,22,61,286,23,21,58,085,27,51,48,160,31*74
08:29:01.43,58287,$GPGSV,3,2,12,06,47,291,37,27,40,304,37,14,33,188,35,03,26,309,36*78
08:29:01.45,58309,$GPGSV,3,3,12,15,24,046,42,24,13,093,,16,12,264,32,19,09,322,37*71
08:29:01.48,58331,$GPRMC,162901.000,A,3400.5912,N,11823.4070,W,0.09,359.95,120214,,,D*78
08:29:01.49,58341,$GPVTG,359.95,T,,M,0.09,N,0.17,K,D*34
08:29:02.38,59232,$GPGGA,162902.000,3400.5910,N,11823.4067,W,2,9,1.00,32.2,M,-33.9,M,0000,0000*5A
08:29:02.39,59250,$GPGSA,A,3,18,06,03,27,14,21,15,16,19,,,,1.83,1.00,1.53*0A
08:29:02.42,59272,$GPGSV,3,1,12,18,65,020,41,22,61,286,22,21,58,085,27,51,48,160,31*75
08:29:02.43,59292,$GPGSV,3,2,12,06,47,291,37,27,40,304,37,14,33,188,35,03,26,309,37*79
08:29:02.46,59314,$GPGSV,3,3,12,15,24,046,42,24,13,093,,16,12,264,33,19,09,322,37*70
08:29:02.48,59335,$GPRMC,162902.000,A,3400.5910,N,11823.4067,W,0.13,359.95,120214,,,D*74
08:29:02.49,59346,$GPVTG,359.95,T,,M,0.13,N,0.24,K,D*3F
08:29:03.41,60266,$GPGGA,162903.000,3400.5912,N,11823.4066,W,2,10,0.98,32.2,M,-33.9,M,0000,0000*60
08:29:03.43,60284,$GPGSA,A,3,18,06,03,27,14,22,21,15,16,19,,,1.67,0.98,1.35*00
08:29:03.45,60306,$GPGSV,3,1,12,18,65,020,41,22,61,286,29,21,58,085,27,51,48,160,32*7D
08:29:03.47,60328,$GPGSV,3,2,12,06,47,291,36,27,40,304,37,14,33,188,35,03,26,309,37*78
08:29:03.49,60348,$GPGSV,3,3,12,15,24,046,42,24,13,093,,16,12,264,33,19,09,322,38*7F
08:29:03.51,60369,$GPRMC,162903.000,A,3400.5912,N,11823.4066,W,0.01,359.95,120214,,,D*75
08:29:03.53,60381,$GPVTG,359.95,T,,M,0.01,N,0.02,K,D*38
08:29:04.38,61232,$GPGGA,162904.000,3400.5912,N,11823.4065,W,2,10,0.98,31.9,M,-33.9,M,0000,0000*6C
08:29:04.39,61251,$GPGSA,A,3,18,06,03,27,14,22,21,15,16,19,,,1.67,0.98,1.35*00
08:29:04.42,61273,$GPGSV,3,1,12,18,65,020,41,22,61,287,30,21,58,085,27,51,48,160,32*74
08:29:04.44,61295,$GPGSV,3,2,12,06,47,291,35,27,40,304,37,14,33,188,34,03,26,309,37*7A
08:29:04.46,61315,$GPGSV,3,3,12,15,24,046,42,24,13,093,,16,12,264,34,19,09,322,38*78
08:29:04.48,61337,$GPRMC,162904.000,A,3400.5912,N,11823.4065,W,0.00,359.95,120214,,,D*70
08:29:04.49,61348,$GPVTG,359.95,T,,M,0.00,N,0.01,K,D*3A
08:29:05.37,62225,$GPGGA,162905.000,3400.5912,N,11823.4062,W,2,9,1.00,32.2,M,-33.9,M,0000,0000*5A
08:29:05.39,62243,$GPGSA,A,3,18,06,03,27,14,21,15,16,19,,,,1.83,1.00,1.53*0A
08:29:05.41,62265,$GPGSV,3,1,12,18,65,020,41,22,61,287,19,21,58,085,26,51,48,160,32*7E
08:29:05.43,62285,$GPGSV,3,2,12,06,47,291,35,27,40,304,37,14,33,188,34,03,26,309,37*7A
08:29:05.45,62307,$GPGSV,3,3,12,15,24,046,41,24,13,093,,16,12,264,34,19,09,322,38*7B
08:29:05.47,62328,$GPRMC,162905.000,A,3400.5912,N,11823.4062,W,0.00,359.95,120214,,,D*76
08:29:05.48,62339,$GPVTG,359.95,T,,M,0.00,N,0.01,K,D*3A
08:29:06.38,63234,$GPGGA,162906.000,3400.5914,N,11823.4062,W,2,9,1.00,32.0,M,-33.9,M,0000,0000*5D
08:29:06.39,63252,$GPGSA,A,3,18,06,03,27,14,21,15,16,19,,,,1.83,1.00,1.53*0A
08:29:06.42,63274,$GPGSV,3,1,12,18,65,020,41,22,61,287,20,21,58,085,26,51,48,160,31*77
08:29:06.43,63294,$GPGSV,3,2,12,06,47,291,35,27,40,304,37,14,33,188,34,03,26,309,38*75
08:29:06.46,63316,$GPGSV,3,3,12,15,24,046,41,24,13,093,,16,12,264,35,19,09,322,38*7A
08:29:06.48,63338,$GPRMC,162906.000,A,3400.5914,N,11823.4062,W,0.00,359.95,120214,,,D*73
08:29:06.49,63348,$GPVTG,359.95,T,,M,0.00,N,0.01,K,D*3A
08:29:07.37,64228,$GPGGA,162907.000,3400.5915,N,11823.4061,W,2,9,1.00,32.1,M,-33.9,M,0000,0000*5F
08:29:07.39,64246,$GPGSA,A,3,18,06,03,27,14,21,15,16,19,,,,1.83,1.00,1.53*0A
08:29:07.41,64268,$GPGSV,3,1,12,18,65,020,41,22,61,287,21,21,58,085,27,51,48,160,31*77
08:29:07.43,64288,$GPGSV,3,2,12,06,47,291,35,27,40,304,37,14,33,188,33,03,26,309,38*72
08:29:07.45,64310,$GPGSV,3,3,12,15,24,046,42,24,13,093,,16,12,264,35,19,09,322,38*79
08:29:07.47,64332,$GPRMC,162907.000,A,3400.5915,N,11823.4061,W,0.00,359.95,120214,,,D*70
08:29:07.49,64342,$GPVTG,359.95,T,,M,0.00,N,0.00,K,D*3B
08:29:08.39,65251,$GPGGA,162908.000,3400.5915,N,11823.4060,W,2,10,0.98,32.3,M,-33.9,M,0000,0000*6B
08:29:08.41,65269,$GPGSA,A,3,18,06,03,27,14,22,21,15,16,19,,,1.67,0.98,1.35*00
08:29:08.43,65291,$GPGSV,3,1,12,18,65,020,41,22,61,287,23,21,58,085,28,51,48,160,32*79
08:29:08.46,65313,$GPGSV,3,2,12,06,47,291,35,27,40,304,37,14,33,188,34,03,26,309,38*75
08:29:08.47,65333,$GPGSV,3,3,12,15,24,046,42,24,13,093,,16,12,264,35,19,09,322,38*79
08:29:08.50,65355,$GPRMC,162908.000,A,3400.5915,N,11823.4060,W,0.00,359.95,120214,,,D*7E
08:29:08.51,65366,$GPVTG,359.95,T,,M,0.00,N,0.00,K,D*3B
08:29:09.40,66257,$GPGGA,162909.000,3400.5915,N,11823.4061,W,2,10,0.98,31.9,M,-33.9,M,0000,0000*62
08:29:09.42,66275,$GPGSA,A,3,18,06,03,27,14,22,21,15,16,19,,,1.67,0.98,1.35*00
08:29:09.44,66297,$GPGSV,3,1,12,18,65,020,41,22,61,287,24,21,58,085,28,51,48,160,32*7E
08:29:09.46,66319,$GPGSV,3,2,12,06,47,291,34,27,40,304,37,14,33,188,34,03,26,309,38*74
08:29:09.48,66339,$GPGSV,3,3,12,15,24,046,41,24,13,093,,16,12,264,34,19,09,322,38*7B
08:29:09.50,66361,$GPRMC,162909.000,A,3400.5915,N,11823.4061,W,0.00,359.95,120214,,,D*7E
08:29:09.52,66372,$GPVTG,359.95,T,,M,0.00,N,0.00,K,D*3B
08:29:10.37,67230,$GPGGA,162910.000,3400.5917,N,11823.4060,W,2,9,1.00,32.0,M,-33.9,M,0000,0000*5B
08:29:10.39,67248,$GPGSA,A,3,18,06,03,27,14,21,15,16,19,,,,1.83,1.00,1.53*0A
08:29:10.41,67270,$GPGSV,3,1,12,18,65,020,41,22,61,287,23,21,58,085,28,51,48,160,32*79
08:29:10.43,67290,$GPGSV,3,2,12,06,47,291,33,27,40,304,36,14,33,188,34,03,26,309,38*72
08:29:10.46,67312,$GPGSV,3,3,12,15,24,046,40,24,13,093,,16,12,264,34,19,09,322,38*7A
08:29:10.48,67333,$GPRMC,162910.000,A,3400.5917,N,11823.4060,W,0.00,359.95,120214,,,D*75
08:29:10.49,67344,$GPVTG,359.95,T,,M,0.00,N,0.00,K,D*3B
08:29:11.38,68231,$GPGGA,162911.000,3400.5918,N,11823.4060,W,2,9,1.00,32.4,M,-33.9,M,0000,0000*51
08:29:11.40,68249,$GPGSA,A,3,18,06,03,27,14,21,15,16,19,,,,1.83,1.00,1.53*0A
08:29:11.42,68271,$GPGSV,3,1,12,18,65,020,41,22,61,287,22,21,58,085,28,51,48,160,32*78
08:29:11.44,68291,$GPGSV,3,2,12,06,47,291,31,27,40,304,35,14,33,188,34,03,26,309,38*73
08:29:11.46,68312,$GPGSV,3,3,12,15,24,046,40,24,13,093,,16,12,264,33,19,09,322,38*7D
08:29:11.48,68334,$GPRMC,162911.000,A,3400.5918,N,11823.4060,W,0.00,359.95,120214,,,D*7B
08:29:11.49,68345,$GPVTG,359.95,T,,M,0.00,N,0.00,K,D*3B
08:29:12.38,69239,$GPGGA,162912.000,3400.5919,N,11823.4060,W,2,10,0.98,32.4,M,-33.9,M,0000,0000*6B
08:29:12.40,69257,$GPGSA,A,3,18,06,03,27,14,22,21,15,16,19,,,1.67,0.98,1.35*00
08:29:12.42,69279,$GPGSV,3,1,12,18,65,020,41,22,61,287,29,21,58,085,27,51,48,160,32*7C
08:29:12.45,69301,$GPGSV,3,2,12,06,47,291,32,27,40,304,35,14,33,188,34,03,26,309,38*70
08:29:12.46,69321,$GPGSV,3,3,12,15,24,046,40,24,13,093,,16,12,264,33,19,09,322,38*7D
08:29:12.49,69343,$GPRMC,162912.000,A,3400.5919,N,11823.4060,W,0.00,359.95,120214,,,D*79
08:29:12.49,69354,$GPVTG,359.95,T,,M,0.00,N,0.00,K,D*3B
08:29:13.38,70237,$GPGGA,162913.000,3400.5919,N,11823.4060,W,2,9,1.00,32.3,M,-33.9,M,0000,0000*55
08:29:13.40,70255,$GPGSA,A,3,18,06,03,27,14,21,15,16,19,,,,1.83,1.00,1.53*0A
08:29:13.42,70276,$GPGSV,3,1,12,18,65,020,41,22,61,287,19,21,58,085,27,51,48,160,32*7F
08:29:13.44,70297,$GPGSV,3,2,12,06,47,291,32,27,40,304,35,14,33,188,33,03,26,309,38*77
08:29:13.46,70318,$GPGSV,3,3,12,15,24,046,40,24,13,093,,16,12,264,32,19,09,322,38*7C
08:29:13.49,70340,$GPRMC,162913.000,A,3400.5919,N,11823.4060,W,0.00,359.95,120214,,,D*78
08:29:13.49,70351,$GPVTG,359.95,T,,M,0.00,N,0.00,K,D*3B
08:29:14.39,71250,$GPGGA,162914.000,3400.5919,N,11823.4062,W,2,10,0.98,31.8,M,-33.9,M,0000,0000*60
08:29:14.41,71268,$GPGSA,A,3,18,06,03,27,14,22,21,15,16,19,,,1.67,0.98,1.35*00
08:29:14.43,71290,$GPGSV,3,1,12,18,65,020,41,22,61,287,30,21,58,085,27,51,48,160,31*77
08:29:14.45,71312,$GPGSV,3,2,12,06,47,291,33,27,40,304,35,14,33,188,32,03,26,309,38*77
08:29:14.48,71332,$GPGSV,3,3,12,15,24,046,40,24,13,093,,16,12,264,32,19,09,322,38*7C
08:29:14.49,71354,$GPRMC,162914.000,A,3400.5919,N,11823.4062,W,0.00,359.95,120214,,,D*7D
08:29:14.51,71366,$GPVTG,359.95,T,,M,0.00,N,0.01,K,D*3A
08:29:15.40,72258,$GPGGA,162915.000,3400.5920,N,11823.4062,W,2,10,0.98,31.7,M,-33.9,M,0000,0000*64
08:29:15.42,72277,$GPGSA,A,3,18,06,03,27,14,22,21,15,16,19,,,1.67,0.98,1.35*00
08:29:15.44,72299,$GPGSV,3,1,12,18,65,020,40,22,61,287,28,21,58,085,27,51,48,160,31*7F
08:29:15.46,72320,$GPGSV,3,2,12,06,47,291,35,27,40,304,36,14,33,188,32,03,26,309,37*7D
08:29:15.49,72341,$GPGSV,3,3,12,15,24,046,39,24,13,093,,16,12,264,32,19,09,322,37*7D
08:29:15.50,72362,$GPRMC,162915.000,A,3400.5920,N,11823.4062,W,0.00,359.95,120214,,,D*76
08:29:15.52,72374,$GPVTG,359.95,T,,M,0.00,N,0.00,K,D*3B
08:29:16.38,73240,$GPGGA,162916.000,3400.5925,N,11823.4061,W,2,10,0.98,31.6,M,-33.9,M,0000,0000*60
08:29:16.40,73258,$GPGSA,A,3,18,06,03,27,14,22,21,15,16,19,,,1.67,0.98,1.35*00
08:29:16.42,73280,$GPGSV,3,1,12,18,65,020,40,22,61,287,28,21,58,085,26,51,48,160,31*7E
08:29:16.45,73301,$GPGSV,3,2,12,06,47,291,36,27,40,304,36,14,33,188,32,03,26,309,37*7E
08:29:16.46,73321,$GPGSV,3,3,12,15,24,046,39,24,13,093,,16,12,264,32,19,09,322,36*7C
08:29:16.49,73344,$GPRMC,162916.000,A,3400.5925,N,11823.4061,W,0.01,359.95,120214,,,D*72
08:29:16.50,73355,$GPVTG,359.95,T,,M,0.01,N,0.02,K,D*38
08:29:17.39,74249,$GPGGA,162917.000,3400.5929,N,11823.4062,W,2,10,0.98,31.7,M,-33.9,M,0000,0000*6F
08:29:17.41,74267,$GPGSA,A,3,18,06,03,27,14,22,21,15,16,19,,,1.67,0.98,1.35*00
08:29:17.43,74289,$GPGSV,3,1,12,18,65,020,40,22,61,287,30,21,58,085,26,51,48,160,31*77
08:29:17.45,74311,$GPGSV,3,2,12,06,47,291,36,27,40,304,36,14,33,188,33,03,26,309,37*7F
08:29:17.47,74331,$GPGSV,3,3,12,15,24,046,39,24,13,093,,16,12,264,32,19,09,322,36*7C
08:29:17.49,74353,$GPRMC,162917.000,A,3400.5929,N,11823.4062,W,0.01,359.95,120214,,,D*7C
08:29:17.51,74364,$GPVTG,359.95,T,,M,0.01,N,0.01,K,D*3B
08:29:18.38,75236,$GPGGA,162918.000,3400.5930,N,11823.4061,W,2,10,0.98,31.5,M,-33.9,M,0000,0000*69
08:29:18.40,75254,$GPGSA,A,3,18,06,03,27,14,22,21,15,16,19,,,1.67,0.98,1.35*00
08:29:18.42,75275,$GPGSV,3,1,12,18,65,020,40,22,61,287,32,21,58,085,26,51,48,160,31*75
08:29:18.44,75297,$GPGSV,3,2,12,06,47,291,36,27,40,304,36,14,33,188,32,03,26,309,37*7E
08:29:18.46,75317,$GPGSV,3,3,12,15,24,046,39,24,13,093,,16,12,264,31,19,09,322,36*7F
08:29:18.49,75339,$GPRMC,162918.000,A,3400.5930,N,11823.4061,W,0.00,359.95,120214,,,D*79
08:29:18.49,75351,$GPVTG,359.95,T,,M,0.00,N,0.00,K,D*3B
08:29:19.38,76242,$GPGGA,162919.000,3400.5929,N,11823.4060,W,2,10,0.98,31.2,M,-33.9,M,0000,0000*66
08:29:19.40,76260,$GPGSA,A,3,18,06,03,27,14,22,21,15,16,19,,,1.67,0.98,1.35*00
08:29:19.42,76282,$GPGSV,3,1,12,18,65,020,40,22,61,287,33,21,58,085,26,51,48,160,31*74
08:29:19.45,76303,$GPGSV,3,2,12,06,47,291,34,27,40,304,36,14,33,188,32,03,26,309,37*7C
08:29:19.47,76324,$GPGSV,3,3,12,15,24,046,39,24,13,093,,16,12,264,31,19,09,322,36*7F
08:29:19.49,76346,$GPRMC,162919.000,A,3400.5929,N,11823.4060,W,0.00,359.95,120214,,,D*71
08:29:19.50,76357,$GPVTG,359.95,T,,M,0.00,N,0.01,K,D*3A
08:29:20.38,77245,$GPGGA,162920.000,3400.5928,N,11823.4059,W,2,10,0.98,31.1,M,-33.9,M,0000,0000*64
08:29:20.41,77263,$GPGSA,A,3,18,06,03,27,14,22,21,15,16,19,,,1.67,0.98,1.35*00
08:29:20.43,77285,$GPGSV,3,1,12,18,65,020,40,22,61,287,33,21,58,085,27,51,48,160,31*75
08:29:20.45,77306,$GPGSV,3,2,12,06,47,291,34,27,40,304,36,14,33,188,32,03,26,309,37*7C
08:29:20.47,77326,$GPGSV,3,3,12,15,24,046,38,24,13,093,,16,12,264,31,19,09,322,36*7E
08:29:20.49,77348,$GPRMC,162920.000,A,3400.5928,N,11823.4059,W,0.00,359.95,120214,,,D*70
08:29:20.50,77361,$GPVTG,359.95,T,,M,0.00,N,0.00,K,D*3B
08:29:21.40,78253,$GPGGA,162921.000,3400.5927,N,11823.4059,W,2,10,0.98,30.7,M,-33.9,M,0000,0000*6D
08:29:21.42,78272,$GPGSA,A,3,18,06,03,27,14,22,21,15,16,19,,,1.67,0.98,1.35*00
08:29:21.44,78293,$GPGSV,3,1,12,18,65,020,40,22,61,287,33,21,58,085,26,51,48,160,30*75
08:29:21.46,78316,$GPGSV,3,2,12,06,47,291,34,27,40,304,36,14,33,188,32,03,26,309,37*7C
08:29:21.48,78336,$GPGSV,3,3,12,15,24,046,38,24,13,093,,16,12,264,31,19,09,322,37*7F
08:29:21.50,78357,$GPRMC,162921.000,A,3400.5927,N,11823.4059,W,0.01,359.95,120214,,,D*7F
08:29:21.52,78369,$GPVTG,359.95,T,,M,0.01,N,0.01,K,D*3B
08:29:22.37,79231,$GPGGA,162922.000,3400.5928,N,11823.4060,W,2,10,0.98,30.9,M,-33.9,M,0000,0000*65
08:29:22.39,79249,$GPGSA,A,3,18,06,03,27,14,22,21,15,16,19,,,1.67,0.98,1.35*00
08:29:22.42,79271,$GPGSV,3,1,12,18,65,020,40,22,61,287,32,21,58,085,26,51,48,160,28*7D
08:29:22.43,79293,$GPGSV,3,2,12,06,47,291,33,27,40,304,35,14,33,188,32,03,26,309,35*7A
08:29:22.46,79313,$GPGSV,3,3,12,15,24,046,37,24,13,093,,16,12,264,32,19,09,322,37*73
08:29:22.48,79335,$GPRMC,162922.000,A,3400.5928,N,11823.4060,W,0.01,359.95,120214,,,D*79
08:29:22.49,79346,$GPVTG,359.95,T,,M,0.01,N,0.02,K,D*38
08:29:23.38,80233,$GPGGA,162923.000,3400.5925,N,11823.4059,W,2,10,0.98,30.8,M,-33.9,M,0000,0000*62
08:29:23.39,80251,$GPGSA,A,3,18,06,03,27,14,22,21,15,16,19,,,1.67,0.98,1.35*00
08:29:23.42,80273,$GPGSV,3,1,12,18,65,020,39,22,61,287,33,21,58,085,35,51,48,160,28*70
08:29:23.44,80295,$GPGSV,3,2,12,06,47,291,33,27,40,304,35,14,33,188,33,03,26,309,34*7A
08:29:23.46,80315,$GPGSV,3,3,12,15,24,046,38,24,13,093,,16,12,264,32,19,09,322,37*7C
08:29:23.48,80337,$GPRMC,162923.000,A,3400.5925,N,11823.4059,W,0.02,359.95,120214,,,D*7C
08:29:23.50,80348,$GPVTG,359.95,T,,M,0.02,N,0.03,K,D*3A
08:29:24.38,81234,$GPGGA,162924.000,3400.5922,N,11823.4062,W,2,10,0.98,30.4,M,-33.9,M,0000,0000*66
08:29:24.39,81252,$GPGSA,A,3,18,06,03,27,14,22,21,15,16,19,,,1.67,0.98,1.35*00
08:29:24.42,81274,$GPGSV,3,1,12,18,65,020,40,22,61,287,32,21,58,085,33,51,48,160,27*76
08:29:24.44,81296,$GPGSV,3,2,12,06,47,291,34,27,40,304,35,14,33,188,32,03,26,309,32*7A
08:29:24.46,81316,$GPGSV,3,3,12,15,24,046,37,24,13,093,,16,12,264,33,19,09,322,37*72
08:29:24.48,81338,$GPRMC,162924.000,A,3400.5922,N,11823.4062,W,0.16,359.95,120214,,,D*71
08:29:24.50,81349,$GPVTG,359.95,T,,M,0.16,N,0.29,K,D*37
08:29:25.38,82234,$GPGGA,162925.000,3400.5920,N,11823.4062,W,2,10,0.95,30.2,M,-33.9,M,0000,0000*6E
08:29:25.39,82252,$GPGSA,A,3,18,06,03,27,14,22,21,15,16,19,,,1.25,0.95,0.80*04
08:29:25.42,82274,$GPGSV,3,1,12,18,65,020,40,22,61,287,23,21,58,085,32,51,48,160,28*78
08:29:25.44,82296,$GPGSV,3,2,12,06,47,291,33,27,40,304,35,14,33,188,31,03,26,309,34*78
08:29:25.46,82316,$GPGSV,3,3,12,15,24,046,36,24,13,093,,16,12,264,23,19,09,322,36*73
08:29:25.48,82338,$GPRMC,162925.000,A,3400.5920,N,11823.4062,W,0.60,214.49,120214,,,D*7A
08:29:25.50,82349,$GPVTG,214.49,T,,M,0.60,N,1.11,K,D*35
08:29:26.38,83234,$GPGGA,162926.000,3400.5911,N,11823.4062,W,2,10,0.95,29.9,M,-33.9,M,0000,0000*6C
08:29:26.39,83253,$GPGSA,A,3,18,06,03,27,14,22,21,15,16,19,,,1.25,0.95,0.80*04
08:29:26.42,83274,$GPGSV,3,1,12,18,65,020,38,22,61,287,36,21,58,085,31,51,48,160,29*71
08:29:26.44,83296,$GPGSV,3,2,12,06,47,291,33,27,40,304,35,14,33,188,40,03,26,309,33*79
08:29:26.46,83316,$GPGSV,3,3,12,15,24,046,35,24,13,093,,16,12,264,23,19,09,322,29*7E
08:29:26.48,83338,$GPRMC,162926.000,A,3400.5911,N,11823.4062,W,1.60,197.46,120214,,,D*7D
08:29:26.50,83350,$GPVTG,197.46,T,,M,1.60,N,2.96,K,D*3F
08:29:27.40,84258,$GPGGA,162927.000,3400.5905,N,11823.4063,W,2,10,0.95,29.6,M,-33.9,M,0000,0000*66
08:29:27.42,84276,$GPGSA,A,3,18,06,03,27,14,22,21,15,16,19,,,1.25,0.95,0.80*04
08:29:27.44,84298,$GPGSV,3,1,12,18,65,020,37,22,61,287,35,21,58,085,30,51,48,160,28*7D
08:29:27.46,84320,$GPGSV,3,2,12,06,47,291,34,27,40,304,35,14,33,188,27,03,26,309,31*7D
08:29:27.49,84340,$GPGSV,3,3,12,15,24,046,28,24,13,093,,16,12,264,25,19,09,322,30*7C
08:29:27.50,84362,$GPRMC,162927.000,A,3400.5905,N,11823.4063,W,1.77,205.44,120214,,,D*74
08:29:27.52,84373,$GPVTG,205.44,T,,M,1.77,N,3.29,K,D*36
08:29:28.38,85238,$GPGGA,162928.000,3400.5896,N,11823.4070,W,2,10,0.95,29.3,M,-33.9,M,0000,0000*65
08:29:28.40,85256,$GPGSA,A,3,18,06,03,27,14,22,21,15,16,19,,,1.25,0.95,0.80*04
08:29:28.43,85278,$GPGSV,3,1,12,18,65,020,30,22,61,287,35,21,58,085,29,51,48,160,38*73
08:29:28.44,85300,$GPGSV,3,2,12,06,47,291,33,27,40,304,34,14,33,188,36,03,26,309,32*78
08:29:28.46,85320,$GPGSV,3,3,12,15,24,046,35,24,13,093,,16,12,264,25,19,09,322,39*79
08:29:28.49,85342,$GPRMC,162928.000,A,3400.5896,N,11823.4070,W,2.13,217.57,120214,,,D*72
08:29:28.50,85353,$GPVTG,217.57,T,,M,2.13,N,3.95,K,D*31
08:29:29.39,86253,$GPGGA,162929.000,3400.5893,N,11823.4077,W,2,10,0.95,28.9,M,-33.9,M,0000,0000*6D
08:29:29.42,86270,$GPGSA,A,3,18,06,03,27,14,22,21,15,16,19,,,1.25,0.95,0.80*04
08:29:29.43,86292,$GPGSV,3,1,12,18,65,020,31,22,61,287,26,21,58,085,28,51,48,160,38*71
08:29:29.46,86315,$GPGSV,3,2,12,06,47,291,33,27,40,304,33,14,33,188,37,03,26,309,33*7F
08:29:29.48,86334,$GPGSV,3,3,12,15,24,045,28,24,13,093,,16,12,264,39,19,09,322,40*75
08:29:29.50,86356,$GPRMC,162929.000,A,3400.5893,N,11823.4077,W,1.72,233.00,120214,,,D*71
08:29:29.51,86368,$GPVTG,233.00,T,,M,1.72,N,3.18,K,D*34
08:29:30.38,87235,$GPGGA,162930.000,3400.5888,N,11823.4085,W,2,8,0.98,28.9,M,-33.9,M,0000,0000*56
08:29:30.39,87253,$GPGSA,A,3,18,03,27,14,21,15,16,19,,,,,1.31,0.98,0.86*0C
08:29:30.42,87273,$GPGSV,3,1,12,18,65,020,32,22,61,287,24,21,58,085,29,51,48,160,36*7F
08:29:30.44,87296,$GPGSV,3,2,12,06,47,291,19,27,40,304,22,14,33,188,36,03,26,309,34*71
08:29:30.46,87316,$GPGSV,3,3,12,15,24,045,30,24,13,093,,16,12,264,37,19,09,322,40*72
08:29:30.48,87337,$GPRMC,162930.000,A,3400.5888,N,11823.4085,W,1.05,248.88,120214,,,D*72
08:29:30.50,87349,$GPVTG,248.88,T,,M,1.05,N,1.95,K,D*3F
08:29:31.37,88227,$GPGGA,162931.000,3400.5885,N,11823.4087,W,2,8,0.98,28.6,M,-33.9,M,0000,0000*57
08:29:31.39,88244,$GPGSA,A,3,18,03,27,14,21,15,16,19,,,,,1.31,0.98,0.86*0C
08:29:32.58,89433,$GPGSV,3,1,12,18,65,020,33,22,61,287,17,21,58,085,30,51,48,160,28*79
08:29:33.21,90061,$GPGSV,3,2,12,06,47,291,19,27,40,304,31,14,33,188,36,03,26,309,27*71
08:29:33.21,90061,$GPGSV,3,3,12,15,24,045,29,24,13,093,,16,12,264,35,19,09,322,40*78
08:29:33.21,90062,$GPRMC,162931.000,A,3400.5885,N,11823.4087,W,0.69,244.67,120214,,,D*7A
08:29:33.21,90063,$GPVTG,244.67,T,,M,0.69,N,1.28,K,D*3F
08:29:33.21,90064,$GPGGA,162932.000,3400.5884,N,11823.4087,W,2,8,0.98,28.5,M,-33.9,M,0000,0000*56
08:29:33.21,90064,$GPGSA,A,3,18,03,27,14,21,15,16,19,,,,,1.31,0.98,0.86*0C
08:29:33.21,90066,$GPGSV,3,1,12,18,64,021,34,22,61,287,16,21,58,085,30,51,48,160,29*7E
08:29:33.22,90067,$GPGSV,3,2,12,06,47,291,17,27,40,304,30,14,33,188,36,03,26,309,27*7E
08:29:33.22,90069,$GPGSV,3,3,12,15,24,045,28,24,13,093,,16,12,264,33,19,09,322,40*7F
08:29:33.22,90070,$GPRMC,162932.000,A,3400.5884,N,11823.4087,W,0.29,244.67,120214,,,D*7C
08:29:33.22,90070,$GPVTG,244.67,T,,M,0.29,N,0.53,K,D*36
08:29:33.37,90227,$GPGGA,162933.000,3400.5882,N,11823.4089,W,2,8,0.98,28.2,M,-33.9,M,0000,0000*58
08:29:33.39,90245,$GPGSA,A,3,18,03,27,14,21,15,16,19,,,,,1.31,0.98,0.86*0C
08:29:33.41,90265,$GPGSV,3,1,12,18,64,021,34,22,61,287,17,21,58,085,30,51,48,160,28*7E
08:29:33.44,90287,$GPGSV,3,2,12,06,47,291,17,27,40,304,30,14,33,188,36,03,26,309,27*7E
08:29:33.45,90307,$GPGSV,3,3,12,15,24,045,29,24,13,093,,16,12,264,32,19,09,322,39*71
08:29:33.52,90367,$GPRMC,162933.000,A,3400.5882,N,11823.4089,W,0.16,244.67,120214,,,D*79
08:29:34.02,90873,$GPVTG,244.67,T,,M,0.16,N,0.30,K,D*3F
08:29:34.71,91567,$GPGGA,162934.000,3400.5878,N,11823.4092,W,2,9,0.96,27.8,M,-33.9,M,0000,0000*5A
08:29:34.71,91568,$GPGSA,A,3,18,06,03,27,14,21,15,16,19,,,,1.27,0.96,0.84*01
08:29:34.71,91569,$GPGSV,3,1,12,18,64,021,35,22,61,287,17,21,58,085,29,51,48,160,28*77
08:29:34.71,91569,$GPGSV,3,2,12,06,47,291,18,27,40,304,29,14,33,188,35,03,26,309,29*74
08:29:34.71,91570,$GPGSV,3,3,12,15,24,045,30,24,13,093,,16,12,264,32,19,09,322,39*79
08:29:35.42,92272,$GPRMC,162934.000,A,3400.5878,N,11823.4092,W,0.45,244.67,120214,,,D*77
08:29:35.42,92273,$GPVTG,244.67,T,,M,0.45,N,0.83,K,D*31
08:29:35.43,92286,$GPGGA,162935.000,3400.5878,N,11823.4087,W,2,9,0.96,27.5,M,-33.9,M,0000,0000*52
08:29:35.43,92287,$GPGSA,A,3,18,06,03,27,14,21,15,16,19,,,,1.27,0.96,0.84*01
08:29:35.43,92288,$GPGSV,3,1,12,18,64,021,35,22,61,287,18,21,58,086,28,51,48,160,28*7A
08:29:35.46,92307,$GPGSV,3,2,12,06,47,291,29,27,40,304,30,14,33,188,26,03,26,309,37*73
08:29:37.04,93887,$GPGSV,3,3,12,15,24,045,31,24,13,093,,16,12,264,31,19,09,322,38*7A
08:29:37.04,93888,$GPRMC,162935.000,A,3400.5878,N,11823.4087,W,1.16,114.83,120214,,,D*79
08:29:37.04,93888,$GPVTG,114.83,T,,M,1.16,N,2.16,K,D*34
08:29:37.04,93891,$GPGGA,162936.000,3400.5872,N,11823.4083,W,2,10,0.95,27.3,M,-33.9,M,0000,0000*62
08:29:37.04,93892,$GPGSA,A,3,18,06,03,27,14,22,21,15,16,19,,,1.25,0.95,0.80*04
08:29:37.04,93892,$GPGSV,3,1,12,18,64,021,28,22,61,287,32,21,58,086,27,51,48,160,29*70
08:29:37.04,93893,$GPGSV,3,2,12,06,47,291,30,27,40,304,23,14,33,188,36,03,26,309,28*76
08:29:37.04,93894,$GPGSV,3,3,12,15,24,045,29,24,13,093,,16,12,264,32,19,09,322,27*7E
08:29:37.04,93894,$GPRMC,162936.000,A,3400.5872,N,11823.4083,W,1.92,129.79,120214,,,D*73
08:29:37.04,93895,$GPVTG,129.79,T,,M,1.92,N,3.56,K,D*36
08:29:37.40,94252,$GPGGA,162937.000,3400.5865,N,11823.4076,W,2,10,0.95,26.3,M,-33.9,M,0000,0000*6E
08:29:37.42,94269,$GPGSA,A,3,18,06,03,27,14,22,21,15,16,19,,,1.25,0.95,0.80*04
08:29:37.44,94291,$GPGSV,3,1,12,18,64,021,26,22,61,287,39,21,58,086,27,51,48,160,30*7D
08:29:37.46,94313,$GPGSV,3,2,12,06,47,291,32,27,40,304,36,14,33,188,29,03,26,309,29*7F
08:29:37.48,94334,$GPGSV,3,3,12,15,24,045,27,24,13,093,,16,12,264,32,19,09,322,27*70
08:29:37.50,94355,$GPRMC,162937.000,A,3400.5865,N,11823.4076,W,2.32,133.09,120214,,,D*7B
08:29:37.52,94367,$GPVTG,133.09,T,,M,2.32,N,4.30,K,D*34
08:29:38.39,95249,$GPGGA,162938.000,3400.5859,N,11823.4070,W,2,10,0.95,26.2,M,-33.9,M,0000,0000*69
08:29:38.41,95267,$GPGSA,A,3,18,06,03,27,14,22,21,15,16,19,,,1.25,0.95,0.80*04
08:29:38.44,95289,$GPGSV,3,1,12,18,64,021,26,22,61,287,37,21,58,086,28,51,48,160,31*7D
08:29:38.45,95310,$GPGSV,3,2,12,06,47,291,31,27,40,304,34,14,33,188,27,03,26,309,30*78
08:29:38.48,95331,$GPGSV,3,3,12,15,24,045,28,24,13,093,,16,12,264,24,19,09,322,26*79
08:29:38.50,95353,$GPRMC,162938.000,A,3400.5859,N,11823.4070,W,2.33,138.61,120214,,,D*79
08:29:38.51,95364,$GPVTG,138.61,T,,M,2.33,N,4.32,K,D*32
08:29:39.38,96241,$GPGGA,162939.000,3400.5854,N,11823.4063,W,2,10,0.95,26.0,M,-33.9,M,0000,0000*65
08:29:39.41,96260,$GPGSA,A,3,18,06,03,27,14,22,21,15,16,19,,,1.25,0.95,0.80*04
08:29:39.42,96281,$GPGSV,3,1,12,18,64,021,27,22,61,287,36,21,58,086,29,51,48,160,29*75
08:29:39.45,96302,$GPGSV,3,2,12,06,47,291,31,27,40,304,34,14,33,188,27,03,26,309,30*78
08:29:39.47,96323,$GPGSV,3,3,12,15,24,045,28,24,13,093,,16,12,264,23,19,09,322,26*7E
08:29:39.49,96345,$GPRMC,162939.000,A,3400.5854,N,11823.4063,W,2.15,134.61,120214,,,D*7F
08:29:39.50,96356,$GPVTG,134.61,T,,M,2.15,N,3.98,K,D*3D
08:29:40.39,97242,$GPGGA,162940.000,3400.5849,N,11823.4059,W,2,10,0.95,26.0,M,-33.9,M,0000,0000*6E
08:29:40.41,97263,$GPGSA,A,3,18,06,03,27,14,22,21,15,16,19,,,1.25,0.95,0.80*04
08:29:40.43,97282,$GPGSV,3,1,12,18,64,021,26,22,61,287,35,21,58,086,29,51,48,160,28*76
08:29:40.45,97303,$GPGSV,3,2,12,06,47,291,31,27,40,304,33,14,33,188,27,03,26,309,31*7E
08:29:40.47,97324,$GPGSV,3,3,12,15,24,045,28,24,13,093,,16,12,264,23,19,09,322,24*7C
08:29:40.49,97345,$GPRMC,162940.000,A,3400.5849,N,11823.4059,W,1.89,141.34,120214,,,D*70
08:29:40.50,97357,$GPVTG,141.34,T,,M,1.89,N,3.50,K,D*3D
08:29:41.38,98237,$GPGGA,162941.000,3400.5847,N,11823.4051,W,2,10,0.95,26.0,M,-33.9,M,0000,0000*69
08:29:41.40,98255,$GPGSA,A,3,18,06,03,27,14,22,21,15,16,19,,,1.25,0.95,0.80*04
08:29:41.42,98277,$GPGSV,3,1,12,18,64,021,27,22,61,287,34,21,58,086,30,51,48,160,28*7E
08:29:41.45,98299,$GPGSV,3,2,12,06,47,291,30,27,40,304,34,14,33,188,25,03,26,309,30*7B
08:29:41.46,98319,$GPGSV,3,3,12,15,24,045,28,24,13,093,,16,12,264,23,19,09,322,24*7C
08:29:41.49,98341,$GPRMC,162941.000,A,3400.5847,N,11823.4051,W,1.81,132.26,120214,,,D*78
08:29:41.50,98353,$GPVTG,132.26,T,,M,1.81,N,3.35,K,D*31
08:29:42.38,99236,$GPGGA,162942.000,3400.5848,N,11823.4027,W,2,10,0.95,25.6,M,-33.9,M,0000,0000*61
08:29:42.40,99254,$GPGSA,A,3,18,06,03,27,14,22,21,15,16,19,,,1.25,0.95,0.80*04
08:29:42.42,99276,$GPGSV,3,1,12,18,64,021,27,22,61,287,35,21,58,086,30,51,48,160,28*7F
08:29:42.45,99298,$GPGSV,3,2,12,06,47,291,31,27,40,304,33,14,33,188,24,03,26,309,31*7D
08:29:42.46,99318,$GPGSV,3,3,12,15,24,045,30,24,13,093,,16,12,264,22,19,09,322,25*75
08:29:42.49,99339,$GPRMC,162942.000,A,3400.5848,N,11823.4027,W,2.48,110.18,120214,,,D*7E
08:29:42.49,99351,$GPVTG,110.18,T,,M,2.48,N,4.59,K,D*37
08:29:43.38,100237,$GPGGA,162943.000,3400.5845,N,11823.4011,W,2,10,0.95,25.4,M,-33.9,M,0000,0000*6A
08:29:43.40,100256,$GPGSA,A,3,18,06,03,27,14,22,21,15,16,19,,,1.25,0.95,0.80*04
08:29:43.42,100278,$GPGSV,3,1,12,18,64,021,27,22,61,287,33,21,58,086,30,51,48,160,28*79
08:29:43.45,100299,$GPGSV,3,2,12,06,47,291,31,27,40,304,31,14,33,188,24,03,26,309,31*7F
08:29:43.46,100320,$GPGSV,3,3,12,15,24,045,30,24,13,093,,16,12,264,23,19,09,322,26*77
08:29:43.49,100341,$GPRMC,162943.000,A,3400.5845,N,11823.4011,W,3.06,109.45,120214,,,D*7C
08:29:43.50,100353,$GPVTG,109.45,T,,M,3.06,N,5.66,K,D*31
08:29:44.37,101223,$GPGGA,162944.000,3400.5844,N,11823.3997,W,2,9,1.42,25.3,M,-33.9,M,0000,0000*58
08:29:44.38,101241,$GPGSA,A,3,18,06,03,27,22,21,15,16,19,,,,1.64,1.42,0.83*0C
08:29:44.41,101263,$GPGSV,3,1,12,18,64,021,36,22,61,287,32,21,58,086,29,51,48,160,28*70
08:29:44.43,101283,$GPGSV,3,2,12,06,47,291,31,27,40,304,23,14,33,188,23,03,26,309,31*7B
08:29:44.45,101305,$GPGSV,3,3,12,15,24,045,31,24,13,093,,16,12,264,23,19,09,322,42*74
08:29:44.47,101325,$GPRMC,162944.000,A,3400.5844,N,11823.3997,W,4.85,94.02,120214,,,D*40
08:29:44.49,101337,$GPVTG,94.02,T,,M,4.85,N,8.99,K,D*06
08:29:45.39,102243,$GPGGA,162945.000,3400.5843,N,11823.3979,W,2,10,0.98,25.7,M,-33.9,M,0000,0000*64
08:29:45.41,102262,$GPGSA,A,3,18,06,03,27,14,22,21,15,16,19,,,1.67,0.98,1.35*00
08:29:45.43,102283,$GPGSV,3,1,12,18,64,021,37,22,61,287,33,21,58,086,28,51,48,160,37*7F
08:29:45.45,102305,$GPGSV,3,2,12,06,47,291,30,27,40,304,25,14,33,188,24,03,26,309,30*7A
08:29:45.47,102325,$GPGSV,3,3,12,15,24,045,31,24,13,093,,16,12,264,22,19,09,322,32*72
08:29:45.49,102347,$GPRMC,162945.000,A,3400.5843,N,11823.3979,W,3.74,77.96,120214,,,D*4F
08:29:45.50,102358,$GPVTG,77.96,T,,M,3.74,N,6.94,K,D*0C
08:29:46.38,103239,$GPGGA,162946.000,3400.5848,N,11823.3967,W,2,10,0.95,25.8,M,-33.9,M,0000,0000*61
08:29:46.41,103258,$GPGSA,A,3,18,06,03,27,14,22,21,15,16,19,,,1.25,0.95,0.80*04
08:29:46.42,103280,$GPGSV,3,1,12,18,64,021,36,22,61,287,34,21,58,086,29,51,48,160,28*76
08:29:46.45,103301,$GPGSV,3,2,12,06,47,291,30,27,40,304,25,14,33,188,25,03,26,309,29*73
08:29:46.47,103322,$GPGSV,3,3,12,15,24,045,22,24,13,093,,16,12,264,21,19,09,322,32*73
08:29:46.49,103344,$GPRMC,162946.000,A,3400.5848,N,11823.3967,W,2.78,61.90,120214,,,D*44
08:29:46.50,103354,$GPVTG,61.90,T,,M,2.78,N,5.15,K,D*0A
08:29:47.38,104237,$GPGGA,162947.000,3400.5851,N,11823.3966,W,2,10,0.95,26.1,M,-33.9,M,0000,0000*63
08:29:47.40,104255,$GPGSA,A,3,18,06,03,27,14,22,21,15,16,19,,,1.25,0.95,0.80*04
08:29:47.42,104277,$GPGSV,3,1,12,18,64,021,35,22,61,287,34,21,58,086,30,51,48,160,33*77
08:29:47.45,104299,$GPGSV,3,2,12,06,47,291,30,27,40,304,25,14,33,188,26,03,26,309,27*7E
08:29:47.46,104319,$GPGSV,3,3,12,15,24,045,36,24,13,093,,16,12,264,20,19,09,322,30*75
08:29:47.49,104341,$GPRMC,162947.000,A,3400.5851,N,11823.3966,W,3.13,54.26,120214,,,D*4B
08:29:47.50,104352,$GPVTG,54.26,T,,M,3.13,N,5.79,K,D*07
08:29:48.40,105250,$GPGGA,162948.000,3400.5861,N,11823.3956,W,2,10,0.95,26.1,M,-33.9,M,0000,0000*6C
08:29:48.42,105268,$GPGSA,A,3,18,06,03,27,14,22,21,15,16,19,,,1.25,0.95,0.80*04
08:29:48.44,105290,$GPGSV,3,1,12,18,64,021,35,22,61,287,35,21,58,086,30,51,48,160,26*72
08:29:48.46,105312,$GPGSV,3,2,12,06,47,291,29,27,40,304,26,14,33,188,28,03,26,309,26*7A
08:29:48.48,105332,$GPGSV,3,3,12,15,24,045,37,24,13,093,,16,12,264,21,19,09,322,30*75
08:29:48.50,105354,$GPRMC,162948.000,A,3400.5861,N,11823.3956,W,3.93,45.25,120214,,,D*4F
08:29:48.51,105365,$GPVTG,45.25,T,,M,3.93,N,7.28,K,D*0A
08:29:49.38,106237,$GPGGA,162949.000,3400.5869,N,11823.3949,W,2,10,0.98,26.2,M,-33.9,M,0000,0000*65
08:29:49.40,106255,$GPGSA,A,3,18,06,03,27,14,22,21,15,16,19,,,1.67,0.98,1.35*00
08:29:49.42,106277,$GPGSV,3,1,12,18,64,021,35,22,61,287,36,21,58,086,29,51,48,160,27*78
08:29:49.44,106298,$GPGSV,3,2,12,06,47,291,28,27,40,304,26,14,33,188,29,03,26,309,25*79
08:29:49.47,106318,$GPGSV,3,3,12,15,24,045,38,24,13,093,,16,12,264,22,19,09,322,30*79
08:29:49.48,106340,$GPRMC,162949.000,A,3400.5869,N,11823.3949,W,3.57,40.40,120214,,,D*46
08:29:49.50,106351,$GPVTG,40.40,T,,M,3.57,N,6.62,K,D*0B
08:29:50.39,107243,$GPGGA,162950.000,3400.5875,N,11823.3939,W,2,10,0.95,26.2,M,-33.9,M,0000,0000*6A
08:29:50.41,107262,$GPGSA,A,3,18,06,03,27,14,22,21,15,16,19,,,1.25,0.95,0.80*04
